<?xml version="1.0" encoding="UTF-8" standalone="yes"?>
<data>
	<cities>
		<city>
			<name>Самара</name>
			<latitude>53.11</latitude>
			<longitude>50.07</longitude>
		</city>
		<city>
			<name>Тольятти</name>
			<latitude>53.11</latitude>
			<longitude>49.25</longitude>
		</city>
		<city>
			<name>Москва</name>
			<latitude>55.45</latitude>
			<longitude>37.37</longitude>
		</city>
		<city>
			<name>Волгоград</name>
			<latitude>48.41</latitude>
			<longitude>44.28</longitude>
		</city>
		<city>
			<name>Сызрань</name>
			<latitude>53.10</latitude>
			<longitude>48.28</longitude>
		</city>
		<city>
			<name>Токио</name>
			<latitude>35.41</latitude>
			<longitude>139.36</longitude>
		</city>
	</cities>
	<distances>
		<distance>
			<cityFrom>
				<name>Сызрань</name>
			</cityFrom>
			<cityTo>
				<name>Тольятти</name>
			</cityTo>
			<value>100</value>
		</distance>	
		<distance>
			<cityFrom>
				<name>Тольятти</name>
			</cityFrom>
			<cityTo>
				<name>Волгоград</name>
			</cityTo>
			<value>791</value>
		</distance>	
		<distance>
				<cityFrom>
					<name>Самара</name>
				</cityFrom>
				<cityTo>
					<name>Волгоград</name>
				</cityTo>
			<value>818</value>
		</distance>
		<distance>
				<cityFrom>
					<name>Самара</name>
				</cityFrom>
				<cityTo>
					<name>Москва</name>
				</cityTo>
			<value>1062</value>
		</distance>
	</distances>
</data>